{
    "Fukuoka": [
        {
            "title": "Peace Park",
            "latitude": 32.7764,
            "longitude": 129.8636,
            "image": "https://www.nagasaki-tabinet.com/storage/tourism_attractions/130/responsive_images/3wSZAJI6nXF09FQBJ04IkhJP4FjsGk22kaJcii3W__1400_933.jpeg",
            "linkIcon": "/assets/link.png",
            "link": "https://www.discover-nagasaki.com/en/sightseeing/130"
        },
        {
            "title": "Nagasaki Atomic Bomb Museum",
            "latitude": 32.7728,
            "longitude": 129.8644,
            "image": "https://www.nagasaki-tabinet.com/storage/tourism_attractions/126/responsive_images/tHMAtyR8VKRBJkY2WmTcTpMIMP6v5YrJxAJvh7gR__1280_1015.jpeg",
            "link": "https://www.discover-nagasaki.com/en/sightseeing/126"
        },
        {
            "title": "Sanno Shrine and the One-Legged Torii Gate",
            "latitude": 32.7675,
            "longitude": 129.8673,
            "image": "https://www.nagasaki-tabinet.com/storage/tourism_attractions/117/responsive_images/FvLa9JU7Gl6QDW2UswrT4INEp6IAVKKiVbcvnHL2__1399_935.jpeg",
            "link": "https://www.discover-nagasaki.com/en/sightseeing/117"
        },
        {
            "title": "Fruit-Shaped Bus Stops",
            "latitude": 32.927071,
            "longitude": 130.190463,
            "image": "https://www.nagasaki-tabinet.com/storage/tourism_attractions/63101/responsive_images/QRQ7jXUK63m71zzX6TdFkIFBp7B3lc8XQkh6zcwE__1570_1047.jpeg",
            "link": "https://www.discover-nagasaki.com/en/sightseeing/63101"
        },
        {
            "title": "Nagasaki Hypocenter Park",
            "latitude": 32.7732,
            "longitude": 129.8631,
            "image": "https://www.nagasaki-tabinet.com/storage/tourism_attractions/124/responsive_images/BOYu4CSUS5YR17jpwikUWsuxKllmY8JKIYnHR6VY__1400_933.jpeg",
            "link": "https://www.discover-nagasaki.com/en/sightseeing/124"
        },
        {
            "title": "Mt. Inasa & Nagasaki Ropeway",
            "latitude": 32.7527,
            "longitude": 129.8495,
            "image": "https://www.nagasaki-tabinet.com/storage/tourism_attractions/115/responsive_images/srVgxfxxlQAU0hl1TygprgHPuyur56E4epbocAno__1399_933.jpeg",
            "link": "https://www.discover-nagasaki.com/en/sightseeing/115"
        },
        {
            "title": "Huis Ten Bosch",
            "latitude": 33.0897,
            "longitude": 129.7919,
            "image": "https://www.nagasaki-tabinet.com/storage/tourism_attractions/259/responsive_images/DLod5djuxz1fA8LvGdjNQoTNF2Imq9jA09sHVALm__1539_1127.jpeg",
            "link": "https://www.discover-nagasaki.com/en/sightseeing/259"
        },
        {
            "title": "Unzen Jigoku (Unzen Hell)",
            "latitude": 32.7405,
            "longitude": 130.2635,
            "image": "https://www.nagasaki-tabinet.com/storage/tourism_attractions/62911/responsive_images/YUyLdIRiqtdgnizZh6LwnV81NrQIyjcG578ulLer__1570_1047.jpeg",
            "link": "https://www.discover-nagasaki.com/en/sightseeing/62911"
        },
        {
            "title": "Glover Garden",
            "latitude": 32.7343,
            "longitude": 129.8692,
            "image": "https://www.nagasaki-tabinet.com/storage/tourism_attractions/101/responsive_images/4hRdQpaxA8DirQ5rzcvPN6AimLlTn06VA90naQCj__1570_1047.jpeg",
            "link": "https://www.discover-nagasaki.com/en/sightseeing/101"
        },
        {
            "title": "Nagasaki Penguin Aquarium",
            "latitude": 32.7582,
            "longitude": 129.9467,
            "image": "https://www.nagasaki-tabinet.com/storage/tourism_attractions/254/responsive_images/vlZt05Q4FdpGFaKrhOqEmYArAuE7ba2J3E2tGDPn__1444_960.jpeg",
            "link": "https://www.discover-nagasaki.com/en/sightseeing/254"
        },
        {
            "title": "Omura Park",
            "latitude": 32.8992,
            "longitude": 129.9590,
            "image": "https://www.nagasaki-tabinet.com/storage/tourism_attractions/322/responsive_images/MiKjFet9iK5mbGtLjZ2sIM6ghQqRisCEXnhONYQq__1024_683.jpeg",
            "link": "https://www.discover-nagasaki.com/en/sightseeing/322"
        },
        {
            "title": "Nita Pass",
            "latitude": 32.7504888,
            "longitude": 130.2811211,
            "image": "https://www.nagasaki-tabinet.com/storage/tourism_attractions/528/responsive_images/ry3pbm90DRFOBqRPoWJ9nBTpFKAfu0E99VtoxqK1__1587_1062.jpeg",
            "link": "https://www.discover-nagasaki.com/en/sightseeing/528"
        },
        {
            "title": "Chijiwa Lookout",
            "latitude": 32.7955643,
            "longitude": 130.1662702,
            "image": "https://www.nagasaki-tabinet.com/storage/tourism_attractions/100838/responsive_images/WvIGaSGMeh2uqQrhtdCGVX042ZjNIomDhqiFbgmo__1368_912.jpeg",
            "link": "https://www.discover-nagasaki.com/en/sightseeing/100838"
        },
        {
            "title": "Mt. Nabekanmuri Park & Observatory",
            "latitude": 32.7294,
            "longitude": 129.8690,
            "image": "https://www.nagasaki-tabinet.com/storage/tourism_attractions/60842/responsive_images/xIYvFExO7ZUhIRCcFoVZsaWUSjUrMPVzTOhu8K2N__1399_787.jpeg",
            "link": "https://www.discover-nagasaki.com/en/sightseeing/60842"
        },
        {
            "title": "Hot Foot 105",
            "latitude": 32.7269,
            "longitude": 130.2052,
            "image": "https://www.nagasaki-tabinet.com/storage/tourism_attractions/50084/responsive_images/MyZYN2E9POJUZVPjfW74rkvK0QNxusRQ69tnCjkf__1564_1043.jpeg",
            "link": "https://www.discover-nagasaki.com/en/sightseeing/50084"
        },
        {
            "title": "Unzen Onsen",
            "latitude": 32.7385,
            "longitude": 130.2617,
            "image": "https://www.nagasaki-tabinet.com/storage/tourism_attractions/532/responsive_images/D9f6taio4g3APYRkD8ajzHQrIvAkDjnHbyavOyGv__1024_681.jpeg",
            "link": "https://www.discover-nagasaki.com/en/sightseeing/532"
        },
        {
            "title": "Yumiharidake Observatory",
            "latitude": 33.1794,
            "longitude":129.7009,
            "image": "https://www.nagasaki-tabinet.com/storage/tourism_attractions/265/responsive_images/iVItGRwatRQiFu9LYKgoAgUDirE2X1OVuJ6NRvqQ__1024_683.jpeg",
            "link": "https://www.discover-nagasaki.com/en/sightseeing/265"
        },
        {
            "title": "Kazagashira Park",
            "latitude": 32.7461,
            "longitude":129.8860,
            "image": "https://www.nagasaki-tabinet.com/storage/tourism_attractions/100/responsive_images/aUqZZZizkVik4Jq6dN47hoOABqvJoPoXQQOwJubE__1400_930.jpeg",
            "link": "https://www.discover-nagasaki.com/en/sightseeing/100"
        },
        {
            "title": "Kawachi Pass",
            "latitude": 33.3416,
            "longitude":129.5269,
            "image": "https://www.nagasaki-tabinet.com/storage/tourism_attractions/357/responsive_images/7yB5cYufMQ9upaT7BuRD535K9YCJDHmYZdB10u3S__1493_1118.jpeg",
            "link": "https://www.discover-nagasaki.com/en/sightseeing/357"
        }
    ]
}